{"meta": {"code": 200, "requestId": "61841fe05186a406fbb58b54"}, "response": {"venues": [{"id": "4b7ca194f964a5209a9e2fe3", "name": "The copper house restaurant", "location": {"lat": 49.68392, "lng": -123.15232, "labeledLatLngs": [{"label": "display", "lat": 49.68392, "lng": -123.15232}], "cc": "CA", "city": "Squamish", "state": "BC", "country": "Canada", "formattedAddress": ["Squamish BC", "Canada"]}, "categories": [], "referralId": "v-1636048864", "hasPerk": false}, {"id": "5ac40f9367af3a24a37823fe", "name": "McDonald's", "location": {"address": "38451 Cleveland Avenue", "crossStreet": "at Sea To Sky Hwy", "lat": 49.70469481633491, "lng": -123.14669351651798, "labeledLatLngs": [{"label": "display", "lat": 49.70469481633491, "lng": -123.14669351651798}], "postalCode": "V8B 0E4", "cc": "CA", "city": "Squamish", "state": "BC", "country": "Canada", "formattedAddress": ["38451 Cleveland Avenue (at Sea To Sky Hwy)", "Squamish BC V8B 0E4", "Canada"]}, "categories": [{"id": "4bf58dd8d48988d16e941735", "name": "Fast Food Restaurant", "pluralName": "Fast Food Restaurants", "shortName": "Fast Food", "icon": {"prefix": "https://ss3.4sqi.net/img/categories_v2/food/fastfood_", "suffix": ".png"}, "primary": true}], "referralId": "v-1636048864", "hasPerk": false}, {"id": "4db8e156cda10f31e6216b99", "name": "Timberwolf Restaurant", "location": {"address": "38922 Progress Way", "crossStreet": "at Finch Dr", "lat": 49.71624007358638, "lng": -123.14922141586511, "labeledLatLngs": [{"label": "display", "lat": 49.71624007358638, "lng": -123.14922141586511}], "postalCode": "V0N 3G0", "cc": "CA", "city": "Squamish", "state": "BC", "country": "Canada", "formattedAddress": ["38922 Progress Way (at Finch Dr)", "Squamish BC V0N 3G0", "Canada"]}, "categories": [{"id": "4bf58dd8d48988d14e941735", "name": "American Restaurant", "pluralName": "American Restaurants", "shortName": "American", "icon": {"prefix": "https://ss3.4sqi.net/img/categories_v2/food/default_", "suffix": ".png"}, "primary": true}], "referralId": "v-1636048864", "hasPerk": false}, {"id": "5a56524ea6ec98652ddf03ef", "name": "DQ Grill & Chill Restaurant", "location": {"address": "1267 Commercial Way", "lat": 49.72272659999999, "lng": -123.1512086, "labeledLatLngs": [{"label": "display", "lat": 49.72272659999999, "lng": -123.1512086}], "postalCode": "V8B 0V1", "cc": "CA", "city": "Squamish", "state": "BC", "country": "Canada", "formattedAddress": ["1267 Commercial Way", "Squamish BC V8B 0V1", "Canada"]}, "categories": [{"id": "4bf58dd8d48988d1c9941735", "name": "Ice Cream Shop", "pluralName": "Ice Cream Shops", "shortName": "Ice Cream", "icon": {"prefix": "https://ss3.4sqi.net/img/categories_v2/food/icecream_", "suffix": ".png"}, "primary": true}], "referralId": "v-1636048864", "hasPerk": false}, {"id": "4bb0c103f964a520015a3ce3", "name": "Sunrise Japanese Restaurant", "location": {"address": "40022 Government Rd", "crossStreet": "Mamquam Rd", "lat": 49.72829682972085, "lng": -123.14341225448736, "labeledLatLngs": [{"label": "display", "lat": 49.72829682972085, "lng": -123.14341225448736}], "cc": "CA", "city": "Squamish", "state": "BC", "country": "Canada", "formattedAddress": ["40022 Government Rd (Mamquam Rd)", "Squamish BC", "Canada"]}, "categories": [{"id": "4bf58dd8d48988d111941735", "name": "Japanese Restaurant", "pluralName": "Japanese Restaurants", "shortName": "Japanese", "icon": {"prefix": "https://ss3.4sqi.net/img/categories_v2/food/japanese_", "suffix": ".png"}, "primary": true}], "referralId": "v-1636048864", "hasPerk": false}, {"id": "5837c3c5809a772320a10fd9", "name": "Essence Of India Restaurant", "location": {"address": "40367 Tantalus Way", "crossStreet": "Garibaldi Highlands", "lat": 49.74008917533508, "lng": -123.13267886638641, "labeledLatLngs": [{"label": "display", "lat": 49.74008917533508, "lng": -123.13267886638641}], "postalCode": "V0N 1T0", "cc": "CA", "city": "Squamish", "state": "BC", "country": "Canada", "formattedAddress": ["40367 Tantalus Way (Garibaldi Highlands)", "Squamish BC V0N 1T0", "Canada"]}, "categories": [{"id": "4bf58dd8d48988d10f941735", "name": "Indian Restaurant", "pluralName": "Indian Restaurants", "shortName": "Indian", "icon": {"prefix": "https://ss3.4sqi.net/img/categories_v2/food/indian_", "suffix": ".png"}, "primary": true}], "referralId": "v-1636048864", "hasPerk": false}, {"id": "51b91f0b498ed7983c1e252e", "name": "Horseshoe Bay Chinese Restaurant", "location": {"address": "12 - 6612 Royal Ave", "lat": 49.37518233293538, "lng": -123.27478958775653, "labeledLatLngs": [{"label": "display", "lat": 49.37518233293538, "lng": -123.27478958775653}], "postalCode": "V7W", "cc": "CA", "city": "West Vancouver", "state": "BC", "country": "Canada", "formattedAddress": ["12 - 6612 Royal Ave", "West Vancouver BC V7W", "Canada"]}, "categories": [{"id": "4bf58dd8d48988d142941735", "name": "Asian Restaurant", "pluralName": "Asian Restaurants", "shortName": "Asian", "icon": {"prefix": "https://ss3.4sqi.net/img/categories_v2/food/asian_", "suffix": ".png"}, "primary": true}], "referralId": "v-1636048864", "hasPerk": false}, {"id": "4ce09986f8a4a14367dae5bc", "name": "Casa di Amici Restaurant", "location": {"address": "1747 Marine Drive", "lat": 49.32865048334808, "lng": -123.1612026549338, "labeledLatLngs": [{"label": "display", "lat": 49.32865048334808, "lng": -123.1612026549338}], "postalCode": "V7V 1J5", "cc": "CA", "city": "West Vancouver", "state": "BC", "country": "Canada", "formattedAddress": ["1747 Marine Drive", "West Vancouver BC V7V 1J5", "Canada"]}, "categories": [{"id": "4bf58dd8d48988d110941735", "name": "Italian Restaurant", "pluralName": "Italian Restaurants", "shortName": "Italian", "icon": {"prefix": "https://ss3.4sqi.net/img/categories_v2/food/italian_", "suffix": ".png"}, "primary": true}], "venuePage": {"id": "592458604"}, "referralId": "v-1636048864", "hasPerk": false}, {"id": "4ab58ed1f964a5205c7520e3", "name": "The Beachhouse Restaurant", "location": {"address": "150 25 St.", "crossStreet": "at Dunderave Pier", "lat": 49.33315007369724, "lng": -123.1823446408464, "labeledLatLngs": [{"label": "display", "lat": 49.33315007369724, "lng": -123.1823446408464}], "postalCode": "V7V 4H8", "cc": "CA", "city": "West Vancouver", "state": "BC", "country": "Canada", "formattedAddress": ["150 25 St. (at Dunderave Pier)", "West Vancouver BC V7V 4H8", "Canada"]}, "categories": [{"id": "4bf58dd8d48988d1ce941735", "name": "Seafood Restaurant", "pluralName": "Seafood Restaurants", "shortName": "Seafood", "icon": {"prefix": "https://ss3.4sqi.net/img/categories_v2/food/seafood_", "suffix": ".png"}, "primary": true}], "venuePage": {"id": "91559041"}, "referralId": "v-1636048864", "hasPerk": false}, {"id": "4b2d760ef964a52030d724e3", "name": "Saltaire Restaurant & Terrace", "location": {"address": "235 15th St.", "lat": 49.32753127355236, "lng": -123.15690821538303, "labeledLatLngs": [{"label": "display", "lat": 49.32753127355236, "lng": -123.15690821538303}], "cc": "CA", "city": "Vancouver", "state": "BC", "country": "Canada", "formattedAddress": ["235 15th St.", "Vancouver BC", "Canada"]}, "categories": [{"id": "4bf58dd8d48988d1c4941735", "name": "Restaurant", "pluralName": "Restaurants", "shortName": "Restaurant", "icon": {"prefix": "https://ss3.4sqi.net/img/categories_v2/food/default_", "suffix": ".png"}, "primary": true}], "referralId": "v-1636048864", "hasPerk": false}], "geocode": {"what": "", "where": "squamish canada", "feature": {"cc": "CA", "name": "Squamish", "displayName": "Squamish, BC, Canada", "matchedName": "Squamish, BC, Canada", "highlightedName": "<b>Squamish</b>, BC, <b>Canada</b>", "woeType": 7, "id": "geonameid:6154636", "longId": "72057594044082572", "geometry": {"center": {"lat": 49.69925, "lng": -123.15631}, "bounds": {"ne": {"lat": 49.87290144788883, "lng": -123.0171691034449}, "sw": {"lat": 49.63858734629337, "lng": -123.2603115568035}}}}, "parents": []}}}