{"meta": {"code": 200, "requestId": "61843b91c6da7673c614c4d9"}, "response": {"venues": [{"id": "5da275378a8ebb00083003e1", "name": "The Goat", "location": {"address": "38005 Cleveland Ave", "crossStreet": "Victoria St.", "lat": 49.698581, "lng": -123.154089, "labeledLatLngs": [{"label": "display", "lat": 49.698581, "lng": -123.154089}], "postalCode": "V8B 0C3", "cc": "CA", "city": "Squamish", "state": "BC", "country": "Canada", "formattedAddress": ["38005 Cleveland Ave (Victoria St.)", "Squamish BC V8B 0C3", "Canada"]}, "categories": [{"id": "4bf58dd8d48988d116941735", "name": "Bar", "pluralName": "Bars", "shortName": "Bar", "icon": {"prefix": "https://ss3.4sqi.net/img/categories_v2/nightlife/pub_", "suffix": ".png"}, "primary": true}], "referralId": "v-1636055953", "hasPerk": false}, {"id": "4b639897f964a520c1852ae3", "name": "Boston Pizza", "location": {"address": "40167 Glenalder Pl", "lat": 49.736719039317535, "lng": -123.13400955374037, "labeledLatLngs": [{"label": "display", "lat": 49.736719039317535, "lng": -123.13400955374037}], "postalCode": "V8B 0G2", "cc": "CA", "city": "Squamish", "state": "BC", "country": "Canada", "formattedAddress": ["40167 Glenalder Pl", "Squamish BC V8B 0G2", "Canada"]}, "categories": [{"id": "4bf58dd8d48988d1ca941735", "name": "Pizza Place", "pluralName": "Pizza Places", "shortName": "Pizza", "icon": {"prefix": "https://ss3.4sqi.net/img/categories_v2/food/pizza_", "suffix": ".png"}, "primary": true}], "referralId": "v-1636055953", "hasPerk": false}, {"id": "5983eaef0d8a0f59001faa5f", "name": "Knotty Burl", "location": {"lat": 49.698968, "lng": -123.153912, "labeledLatLngs": [{"label": "display", "lat": 49.698968, "lng": -123.153912}], "postalCode": "V8B 0C2", "cc": "CA", "city": "Squamish", "state": "BC", "country": "Canada", "formattedAddress": ["Squamish BC V8B 0C2", "Canada"]}, "categories": [{"id": "4bf58dd8d48988d11f941735", "name": "Nightclub", "pluralName": "Nightclubs", "shortName": "Nightclub", "icon": {"prefix": "https://ss3.4sqi.net/img/categories_v2/nightlife/nightclub_", "suffix": ".png"}, "primary": true}], "referralId": "v-1636055953", "hasPerk": false}, {"id": "58c59a97730a927535161615", "name": "A-Frame Brewing", "location": {"address": "1 - 38927 Queens Way", "lat": 49.717377, "lng": -123.15563, "labeledLatLngs": [{"label": "display", "lat": 49.717377, "lng": -123.15563}], "postalCode": "V8B 0K9", "cc": "CA", "city": "Squamish", "state": "BC", "country": "Canada", "formattedAddress": ["1 - 38927 Queens Way", "Squamish BC V8B 0K9", "Canada"]}, "categories": [{"id": "50327c8591d4c4b30a586d5d", "name": "Brewery", "pluralName": "Breweries", "shortName": "Brewery", "icon": {"prefix": "https://ss3.4sqi.net/img/categories_v2/food/brewery_", "suffix": ".png"}, "primary": true}], "referralId": "v-1636055953", "hasPerk": false}, {"id": "52b27e08498ea7fb3801a761", "name": "Match Eatery & Public House", "location": {"address": "9000 Valley Drive", "crossStreet": "at Sea to Sky Hwy", "lat": 49.6914039, "lng": -123.1451491, "labeledLatLngs": [{"label": "display", "lat": 49.6914039, "lng": -123.1451491}], "postalCode": "V8B 0B3", "cc": "CA", "city": "Squamish", "state": "BC", "country": "Canada", "formattedAddress": ["9000 Valley Drive (at Sea to Sky Hwy)", "Squamish BC V8B 0B3", "Canada"]}, "categories": [{"id": "4bf58dd8d48988d11b941735", "name": "Pub", "pluralName": "Pubs", "shortName": "Pub", "icon": {"prefix": "https://ss3.4sqi.net/img/categories_v2/nightlife/pub_", "suffix": ".png"}, "primary": true}], "venuePage": {"id": "576359951"}, "referralId": "v-1636055953", "hasPerk": false}, {"id": "4bb6570f6edc76b02ac8301c", "name": "Crazy Raven Bar & Grill", "location": {"address": "8500 Cypress Bowl Rd W", "crossStreet": "in Cypress Creek Lodge at Cypress Mountain", "lat": 49.39635651687642, "lng": -123.2046913257582, "labeledLatLngs": [{"label": "display", "lat": 49.39635651687642, "lng": -123.2046913257582}], "postalCode": "V7V 3N9", "cc": "CA", "city": "West Vancouver", "state": "BC", "country": "Canada", "formattedAddress": ["8500 Cypress Bowl Rd W (in Cypress Creek Lodge at Cypress Mountain)", "West Vancouver BC V7V 3N9", "Canada"]}, "categories": [{"id": "4bf58dd8d48988d116941735", "name": "Bar", "pluralName": "Bars", "shortName": "Bar", "icon": {"prefix": "https://ss3.4sqi.net/img/categories_v2/nightlife/pub_", "suffix": ".png"}, "primary": true}], "referralId": "v-1636055953", "hasPerk": false}, {"id": "4bda50ce3904a593d926469e", "name": "Shady Tree", "location": {"address": "40456 Government Road", "lat": 49.74184902267378, "lng": -123.13597974011718, "labeledLatLngs": [{"label": "display", "lat": 49.74184902267378, "lng": -123.13597974011718}], "postalCode": "V0N 1T0", "cc": "CA", "city": "Squamish", "state": "BC", "country": "Canada", "formattedAddress": ["40456 Government Road", "Squamish BC V0N 1T0", "Canada"]}, "categories": [{"id": "50327c8591d4c4b30a586d5d", "name": "Brewery", "pluralName": "Breweries", "shortName": "Brewery", "icon": {"prefix": "https://ss3.4sqi.net/img/categories_v2/food/brewery_", "suffix": ".png"}, "primary": true}], "referralId": "v-1636055953", "hasPerk": false}, {"id": "58f13810f62f2b6d3ee3cee3", "name": "Backcountry Brewing", "location": {"address": "1201 Commercial Way", "lat": 49.72384453501592, "lng": -123.1543174163821, "labeledLatLngs": [{"label": "display", "lat": 49.72384453501592, "lng": -123.1543174163821}], "postalCode": "V8B 0R5", "cc": "CA", "city": "Squamish", "state": "BC", "country": "Canada", "formattedAddress": ["1201 Commercial Way", "Squamish BC V8B 0R5", "Canada"]}, "categories": [{"id": "50327c8591d4c4b30a586d5d", "name": "Brewery", "pluralName": "Breweries", "shortName": "Brewery", "icon": {"prefix": "https://ss3.4sqi.net/img/categories_v2/food/brewery_", "suffix": ".png"}, "primary": true}], "referralId": "v-1636055953", "hasPerk": false}, {"id": "4b09eb3bf964a520c21f23e3", "name": "Wigan Pub", "location": {"address": "Tantalus Rd", "lat": 49.715073, "lng": -123.131031, "labeledLatLngs": [{"label": "display", "lat": 49.715073, "lng": -123.131031}], "cc": "CA", "city": "Squamish", "state": "BC", "country": "Canada", "formattedAddress": ["Tantalus Rd", "Squamish BC", "Canada"]}, "categories": [{"id": "4bf58dd8d48988d11b941735", "name": "Pub", "pluralName": "Pubs", "shortName": "Pub", "icon": {"prefix": "https://ss3.4sqi.net/img/categories_v2/nightlife/pub_", "suffix": ".png"}, "primary": true}], "referralId": "v-1636055953", "hasPerk": false}, {"id": "5930e500acb00b7de813afbb", "name": "The Barred Owl", "location": {"address": "40330 Tantalus RD", "lat": 49.739145, "lng": -123.13271, "labeledLatLngs": [{"label": "display", "lat": 49.739145, "lng": -123.13271}], "postalCode": "V8B 3P3", "cc": "CA", "city": "Squamish", "state": "BC", "country": "Canada", "formattedAddress": ["40330 Tantalus RD", "Squamish BC V8B 3P3", "Canada"]}, "categories": [{"id": "4bf58dd8d48988d11b941735", "name": "Pub", "pluralName": "Pubs", "shortName": "Pub", "icon": {"prefix": "https://ss3.4sqi.net/img/categories_v2/nightlife/pub_", "suffix": ".png"}, "primary": true}], "referralId": "v-1636055953", "hasPerk": false}, {"id": "52054fc811d2aadc55ee5269", "name": "Whistler Water Nautical Lounge", "location": {"address": "Squamish Music Festival", "lat": 49.72062, "lng": -123.142909, "labeledLatLngs": [{"label": "display", "lat": 49.72062, "lng": -123.142909}], "cc": "CA", "city": "Squamish", "state": "BC", "country": "Canada", "formattedAddress": ["Squamish Music Festival", "Squamish BC", "Canada"]}, "categories": [{"id": "4bf58dd8d48988d121941735", "name": "Lounge", "pluralName": "Lounges", "shortName": "Lounge", "icon": {"prefix": "https://ss3.4sqi.net/img/categories_v2/nightlife/default_", "suffix": ".png"}, "primary": true}], "referralId": "v-1636055953", "hasPerk": false}, {"id": "51aa9f1e498ed257d71dd83e", "name": "Jumping Seagle", "location": {"lat": 49.739683008132815, "lng": -123.13375407056947, "labeledLatLngs": [{"label": "display", "lat": 49.739683008132815, "lng": -123.13375407056947}], "cc": "CA", "city": "Squamish", "state": "BC", "country": "Canada", "formattedAddress": ["Squamish BC", "Canada"]}, "categories": [{"id": "4bf58dd8d48988d11d941735", "name": "Sports Bar", "pluralName": "Sports Bars", "shortName": "Sports Bar", "icon": {"prefix": "https://ss3.4sqi.net/img/categories_v2/nightlife/sportsbar_", "suffix": ".png"}, "primary": true}], "referralId": "v-1636055953", "hasPerk": false}, {"id": "4cf0c73f1d18a1432dec4eec", "name": "Cliffside Pub", "location": {"address": "1893 Maple Drive", "lat": 49.70202017933538, "lng": -123.13247666113764, "labeledLatLngs": [{"label": "display", "lat": 49.70202017933538, "lng": -123.13247666113764}], "cc": "CA", "city": "Squamish", "state": "BC", "country": "Canada", "formattedAddress": ["1893 Maple Drive", "Squamish BC", "Canada"]}, "categories": [{"id": "4bf58dd8d48988d11b941735", "name": "Pub", "pluralName": "Pubs", "shortName": "Pub", "icon": {"prefix": "https://ss3.4sqi.net/img/categories_v2/nightlife/pub_", "suffix": ".png"}, "primary": true}], "referralId": "v-1636055953", "hasPerk": false}, {"id": "4bf828da5317a593c44fff7e", "name": "the Wolf & Drum Brewery and Alehouse", "location": {"lat": 49.70344154333562, "lng": -123.1532095419057, "labeledLatLngs": [{"label": "display", "lat": 49.70344154333562, "lng": -123.1532095419057}], "postalCode": "V8B 0R8", "cc": "CA", "city": "Squamish", "state": "BC", "country": "Canada", "formattedAddress": ["Squamish BC V8B 0R8", "Canada"]}, "categories": [{"id": "50327c8591d4c4b30a586d5d", "name": "Brewery", "pluralName": "Breweries", "shortName": "Brewery", "icon": {"prefix": "https://ss3.4sqi.net/img/categories_v2/food/brewery_", "suffix": ".png"}, "primary": true}], "referralId": "v-1636055953", "hasPerk": false}, {"id": "4ef5eb51775b54cdb33548c4", "name": "Ho Ho Ho Headquarters", "location": {"address": "2669 Rhum & Eigg Dr.", "lat": 49.7390543330225, "lng": -123.1034667231822, "labeledLatLngs": [{"label": "display", "lat": 49.7390543330225, "lng": -123.1034667231822}], "cc": "CA", "city": "Squamish", "state": "BC", "country": "Canada", "formattedAddress": ["2669 Rhum & Eigg Dr.", "Squamish BC", "Canada"]}, "categories": [{"id": "4bf58dd8d48988d122941735", "name": "Whisky Bar", "pluralName": "Whisky Bars", "shortName": "Whisky Bar", "icon": {"prefix": "https://ss3.4sqi.net/img/categories_v2/nightlife/whiskey_", "suffix": ".png"}, "primary": true}], "referralId": "v-1636055953", "hasPerk": false}, {"id": "603078e7e7ce9d173ded771b", "name": "Cork & Craft Taphouse", "location": {"address": "40330 Tantalus Rd", "lat": 49.739644, "lng": -123.133811, "labeledLatLngs": [{"label": "display", "lat": 49.739644, "lng": -123.133811}], "postalCode": "V8B 0G2", "cc": "CA", "city": "Squamish", "state": "BC", "country": "Canada", "formattedAddress": ["40330 Tantalus Rd", "Squamish BC V8B 0G2", "Canada"]}, "categories": [{"id": "4bf58dd8d48988d123941735", "name": "Wine Bar", "pluralName": "Wine Bars", "shortName": "Wine Bar", "icon": {"prefix": "https://ss3.4sqi.net/img/categories_v2/food/winery_", "suffix": ".png"}, "primary": true}], "referralId": "v-1636055953", "hasPerk": false}, {"id": "4c0df7e7d64c0f477b7c275d", "name": "Downtown Lions Bay", "location": {"address": "350 Centre Road", "crossStreet": "Cross Creek Road", "lat": 49.46620772043007, "lng": -123.23514549778794, "labeledLatLngs": [{"label": "display", "lat": 49.46620772043007, "lng": -123.23514549778794}], "postalCode": "V0N 2E0", "cc": "CA", "city": "Lions Bay", "state": "BC", "country": "Canada", "formattedAddress": ["350 Centre Road (Cross Creek Road)", "Lions Bay BC V0N 2E0", "Canada"]}, "categories": [{"id": "4bf58dd8d48988d121941735", "name": "Lounge", "pluralName": "Lounges", "shortName": "Lounge", "icon": {"prefix": "https://ss3.4sqi.net/img/categories_v2/nightlife/default_", "suffix": ".png"}, "primary": true}], "referralId": "v-1636055953", "hasPerk": false}, {"id": "5c20593e464d65002c9ff587", "name": "GEO Cider", "location": {"lat": 49.724324, "lng": -123.154408, "labeledLatLngs": [{"label": "display", "lat": 49.724324, "lng": -123.154408}], "postalCode": "V8B", "cc": "CA", "city": "Squamish", "state": "BC", "country": "Canada", "formattedAddress": ["Squamish BC V8B", "Canada"]}, "categories": [{"id": "4bf58dd8d48988d117941735", "name": "Beer Garden", "pluralName": "Beer Gardens", "shortName": "Beer Garden", "icon": {"prefix": "https://ss3.4sqi.net/img/categories_v2/nightlife/beergarden_", "suffix": ".png"}, "primary": true}], "referralId": "v-1636055953", "hasPerk": false}, {"id": "5b80d15c25ecca002c89b008", "name": "Cliffside Cider", "location": {"lat": 49.694892, "lng": -123.157688, "labeledLatLngs": [{"label": "display", "lat": 49.694892, "lng": -123.157688}], "postalCode": "V8B 0R2", "cc": "CA", "city": "Squamish", "state": "BC", "country": "Canada", "formattedAddress": ["Squamish BC V8B 0R2", "Canada"]}, "categories": [{"id": "50327c8591d4c4b30a586d5d", "name": "Brewery", "pluralName": "Breweries", "shortName": "Brewery", "icon": {"prefix": "https://ss3.4sqi.net/img/categories_v2/food/brewery_", "suffix": ".png"}, "primary": true}], "referralId": "v-1636055953", "hasPerk": false}, {"id": "5cf1f2f7c03635002c0ab353", "name": "The Backyard", "location": {"address": "1907 Maple Dr", "lat": 49.702056, "lng": -123.132822, "labeledLatLngs": [{"label": "display", "lat": 49.702056, "lng": -123.132822}], "postalCode": "V8B 0Y5", "cc": "CA", "city": "Squamish", "state": "BC", "country": "Canada", "formattedAddress": ["1907 Maple Dr", "Squamish BC V8B 0Y5", "Canada"]}, "categories": [{"id": "4bf58dd8d48988d116941735", "name": "Bar", "pluralName": "Bars", "shortName": "Bar", "icon": {"prefix": "https://ss3.4sqi.net/img/categories_v2/nightlife/pub_", "suffix": ".png"}, "primary": true}], "referralId": "v-1636055953", "hasPerk": false}, {"id": "4e46beb2887781a619aeda87", "name": "Murrin Lake", "location": {"lat": 49.9350768468356, "lng": -123.16747135877418, "labeledLatLngs": [{"label": "display", "lat": 49.9350768468356, "lng": -123.16747135877418}], "cc": "CA", "city": "Whistler", "state": "BC", "country": "Canada", "formattedAddress": ["Whistler BC", "Canada"]}, "categories": [{"id": "4bf58dd8d48988d11f941735", "name": "Nightclub", "pluralName": "Nightclubs", "shortName": "Nightclub", "icon": {"prefix": "https://ss3.4sqi.net/img/categories_v2/nightlife/nightclub_", "suffix": ".png"}, "primary": true}], "referralId": "v-1636055953", "hasPerk": false}, {"id": "5c43be65898bdc002c9183eb", "name": "Northyards Cider", "location": {"address": "38936 Queens Way", "lat": 49.718566, "lng": -123.154363, "labeledLatLngs": [{"label": "display", "lat": 49.718566, "lng": -123.154363}], "postalCode": "V8B 0K8", "cc": "CA", "city": "Squamish", "state": "BC", "country": "Canada", "formattedAddress": ["38936 Queens Way", "Squamish BC V8B 0K8", "Canada"]}, "categories": [{"id": "50327c8591d4c4b30a586d5d", "name": "Brewery", "pluralName": "Breweries", "shortName": "Brewery", "icon": {"prefix": "https://ss3.4sqi.net/img/categories_v2/food/brewery_", "suffix": ".png"}, "primary": true}], "referralId": "v-1636055953", "hasPerk": false}, {"id": "4c8c7d52c37a6dcbf019f87a", "name": "The Grizzly Pub", "location": {"address": "Tantalus", "lat": 49.73954269040138, "lng": -123.13330235688325, "labeledLatLngs": [{"label": "display", "lat": 49.73954269040138, "lng": -123.13330235688325}], "cc": "CA", "city": "Squamish", "state": "BC", "country": "Canada", "formattedAddress": ["Tantalus", "Squamish BC", "Canada"]}, "categories": [{"id": "4bf58dd8d48988d11b941735", "name": "Pub", "pluralName": "Pubs", "shortName": "Pub", "icon": {"prefix": "https://ss3.4sqi.net/img/categories_v2/nightlife/pub_", "suffix": ".png"}, "primary": true}], "referralId": "v-1636055953", "hasPerk": false}, {"id": "4bad71daf964a52094513be3", "name": "Boston Pizza", "location": {"address": "Hwy 99", "lat": 49.765317, "lng": -123.140767, "labeledLatLngs": [{"label": "display", "lat": 49.765317, "lng": -123.140767}], "cc": "CA", "city": "Squamish", "state": "BC", "country": "Canada", "formattedAddress": ["Hwy 99", "Squamish BC", "Canada"]}, "categories": [{"id": "4bf58dd8d48988d1ca941735", "name": "Pizza Place", "pluralName": "Pizza Places", "shortName": "Pizza", "icon": {"prefix": "https://ss3.4sqi.net/img/categories_v2/food/pizza_", "suffix": ".png"}, "primary": true}], "referralId": "v-1636055953", "hasPerk": false}, {"id": "4ade50f2f964a520ef7421e3", "name": "Howe Sound Inn and Brewing Company", "location": {"address": "37801 Cleveland Ave", "lat": 49.69541817826656, "lng": -123.1564241373281, "labeledLatLngs": [{"label": "display", "lat": 49.69541817826656, "lng": -123.1564241373281}], "postalCode": "V8B 0A7", "cc": "CA", "city": "Squamish", "state": "BC", "country": "Canada", "formattedAddress": ["37801 Cleveland Ave", "Squamish BC V8B 0A7", "Canada"]}, "categories": [{"id": "50327c8591d4c4b30a586d5d", "name": "Brewery", "pluralName": "Breweries", "shortName": "Brewery", "icon": {"prefix": "https://ss3.4sqi.net/img/categories_v2/food/brewery_", "suffix": ".png"}, "primary": true}], "referralId": "v-1636055953", "hasPerk": false}, {"id": "57830d3e498e62d44a2d1a91", "name": "Gillespie's Fine Spirits", "location": {"address": "8-38918 Progress Way", "lat": 49.715496, "lng": -123.149508, "labeledLatLngs": [{"label": "display", "lat": 49.715496, "lng": -123.149508}], "postalCode": "V8B 0K7", "cc": "CA", "city": "Squamish", "state": "BC", "country": "Canada", "formattedAddress": ["8-38918 Progress Way", "Squamish BC V8B 0K7", "Canada"]}, "categories": [{"id": "4bf58dd8d48988d1d4941735", "name": "Speakeasy", "pluralName": "Speakeasies", "shortName": "Speakeasy", "icon": {"prefix": "https://ss3.4sqi.net/img/categories_v2/nightlife/secretbar_", "suffix": ".png"}, "primary": true}], "referralId": "v-1636055953", "hasPerk": false}, {"id": "5172524d498edd74d22a36c7", "name": "Donna's", "location": {"lat": 49.699189, "lng": -123.13607, "labeledLatLngs": [{"label": "display", "lat": 49.699189, "lng": -123.13607}], "cc": "CA", "city": "Squamish", "state": "BC", "country": "Canada", "formattedAddress": ["Squamish BC", "Canada"]}, "categories": [{"id": "4bf58dd8d48988d11b941735", "name": "Pub", "pluralName": "Pubs", "shortName": "Pub", "icon": {"prefix": "https://ss3.4sqi.net/img/categories_v2/nightlife/pub_", "suffix": ".png"}, "primary": true}], "referralId": "v-1636055953", "hasPerk": false}, {"id": "4eefec556c256000c6543d18", "name": "Legion branch 181", "location": {"lat": 49.73711761920022, "lng": -123.13305982694115, "labeledLatLngs": [{"label": "display", "lat": 49.73711761920022, "lng": -123.13305982694115}], "cc": "CA", "city": "Squamish", "state": "BC", "country": "Canada", "formattedAddress": ["Squamish BC", "Canada"]}, "categories": [{"id": "4bf58dd8d48988d11a941735", "name": "Other Nightlife", "pluralName": "Other Nightlife", "shortName": "Nightlife", "icon": {"prefix": "https://ss3.4sqi.net/img/categories_v2/nightlife/default_", "suffix": ".png"}, "primary": true}], "referralId": "v-1636055953", "hasPerk": false}], "confident": false, "geocode": {"what": "", "where": "squamish canada", "feature": {"cc": "CA", "name": "Squamish", "displayName": "Squamish, BC, Canada", "matchedName": "Squamish, BC, Canada", "highlightedName": "<b>Squamish</b>, BC, <b>Canada</b>", "woeType": 7, "id": "geonameid:6154636", "longId": "72057594044082572", "geometry": {"center": {"lat": 49.69925, "lng": -123.15631}, "bounds": {"ne": {"lat": 49.87290144788883, "lng": -123.0171691034449}, "sw": {"lat": 49.63858734629337, "lng": -123.2603115568035}}}}, "parents": []}}}